[
  {
    "name": "Addeertz",
    "id": "AddeertzStore",
    "type": "Store",
    "title": "Menswear ",
    "street": "Torstrasse 106",
    "zip":"10119 Berlin",
    "position": {
      "lat": 52.529682,
      "lng": 13.403402
    }
  },
  {
    "name": "Wolfen",
    "id": "WolfenStore",
    "type": "Store",
    "title": "Womenswear / Menswear",
    "street": "Augustrasse 41",
    "zip":"10119 Berlin",
    "position": {
      "lat": 52.527904,
      "lng": 13.402198
    }
  },

  {
    "name": "Konk ",
    "id": "KonkStore",
    "type": "Store",
    "title": "Womenswear",
    "street": "Kleine Hamburger Str. 15",
    "zip": "10117 Berlin",
    "position": {
      "lat": 52.527248,
      "lng": 13.396785
    }
  },

  {
    "name": "Garments",
    "id": "etsyvintageclothingcuriousknopfberlingermany",
    "type": "Store",
    "title": "Vintage",
    "street": "Linienstrasse 204",
    "zip": "10119 Berlin",
    "position": {
      "lat": 52.528911,
      "lng": 13.402287
    }
  },
  {
    "name": "Starstyling",
    "id": "Starstyling",
    "type": "Store",
    "title": "Womenswear / Menswear",
    "street": "Mulackstra√üe 4",
    "zip": "10119 Berlin",
    "position": {
      "lat": 52.527160,
      "lng": 13.407275
    }
  }
]
